{
  "type": "FeatureCollection",
  "features": [
    {
      "type": "Feature",
      "geometry": {
        "type": "Point",
        "coordinates": [
          34.896797,
          31.554151
        ]
      },
      "properties": {
        "name": "Machbenah / Khirbet Hebra",
        "description": "another name for Cabbon",
        "styleUrl": "#landpoint",
        "icon-scale": 0.75,
        "icon": "https://maps.google.com/mapfiles/kml/paddle/red-circle.png"
      }
    },
    {
      "type": "Feature",
      "geometry": {
        "type": "Point",
        "coordinates": [
          34.928056,
          31.563611
        ]
      },
      "properties": {
        "name": "Machbenah / Khirbet Beit Lei",
        "description": "another name for Cabbon",
        "styleUrl": "#landpoint",
        "icon-scale": 0.75,
        "icon": "https://maps.google.com/mapfiles/kml/paddle/red-circle.png"
      }
    },
    {
      "type": "Feature",
      "geometry": {
        "type": "Point",
        "coordinates": [
          34.82719,
          31.52403
        ]
      },
      "properties": {
        "name": "Machbenah / Tel Haraqim",
        "description": "another name for Cabbon",
        "styleUrl": "#landpoint",
        "icon-scale": 0.75,
        "icon": "https://maps.google.com/mapfiles/kml/paddle/red-circle.png"
      }
    },
    {
      "type": "Feature",
      "geometry": {
        "type": "Point",
        "coordinates": [
          34.928577,
          31.350265
        ]
      },
      "properties": {
        "name": "Machbenah / Khirbet Tatrit",
        "description": "another name for Meconah",
        "styleUrl": "#landpoint",
        "icon-scale": 0.75,
        "icon": "https://maps.google.com/mapfiles/kml/paddle/red-circle.png"
      }
    },
    {
      "type": "Feature",
      "geometry": {
        "type": "Point",
        "coordinates": [
          34.933241,
          31.372823
        ]
      },
      "properties": {
        "name": "Machbenah / Khirbet Umm ed Demineh",
        "description": "another name for Meconah",
        "styleUrl": "#landpoint",
        "icon-scale": 0.75,
        "icon": "https://maps.google.com/mapfiles/kml/paddle/red-circle.png"
      }
    },
    {
      "type": "Feature",
      "geometry": {
        "type": "Point",
        "coordinates": [
          34.3099,
          31.248575
        ]
      },
      "properties": {
        "name": "Machbenah / Minieh",
        "description": "another name for Meconah",
        "styleUrl": "#landpoint",
        "icon-scale": 0.75,
        "icon": "https://maps.google.com/mapfiles/kml/paddle/red-circle.png"
      }
    },
    {
      "type": "Feature",
      "geometry": {
        "type": "Point",
        "coordinates": [
          34.6816,
          31.3912
        ]
      },
      "properties": {
        "name": "Machbenah / Tell esh Sharia",
        "description": "another name for Meconah",
        "styleUrl": "#landpoint",
        "icon-scale": 0.75,
        "icon": "https://maps.google.com/mapfiles/kml/paddle/red-circle.png"
      }
    }
  ]
}