{
  "type": "FeatureCollection",
  "features": [
    {
      "type": "Feature",
      "geometry": {
        "type": "Point",
        "coordinates": [
          34.958277,
          31.212285
        ]
      },
      "properties": {
        "name": "Zephath / Tel Masos",
        "description": "another name for Hormah",
        "styleUrl": "#landpoint",
        "icon-scale": 0.75,
        "icon": "https://maps.google.com/mapfiles/kml/paddle/red-circle.png"
      }
    },
    {
      "type": "Feature",
      "geometry": {
        "type": "Point",
        "coordinates": [
          35.0258,
          31.2172
        ]
      },
      "properties": {
        "name": "Zephath / Tel Malhata",
        "description": "another name for Hormah",
        "styleUrl": "#landpoint",
        "icon-scale": 0.75,
        "icon": "https://maps.google.com/mapfiles/kml/paddle/red-circle.png"
      }
    },
    {
      "type": "Feature",
      "geometry": {
        "type": "Point",
        "coordinates": [
          34.86564,
          31.38333
        ]
      },
      "properties": {
        "name": "Zephath / Tel Halif",
        "description": "another name for Hormah",
        "styleUrl": "#landpoint",
        "icon-scale": 0.75,
        "icon": "https://maps.google.com/mapfiles/kml/paddle/red-circle.png"
      }
    },
    {
      "type": "Feature",
      "geometry": {
        "type": "Point",
        "coordinates": [
          34.6816,
          31.3912
        ]
      },
      "properties": {
        "name": "Zephath / Tell esh Sharia",
        "description": "another name for Hormah",
        "styleUrl": "#landpoint",
        "icon-scale": 0.75,
        "icon": "https://maps.google.com/mapfiles/kml/paddle/red-circle.png"
      }
    },
    {
      "type": "Feature",
      "geometry": {
        "type": "Point",
        "coordinates": [
          34.9867,
          31.2328
        ]
      },
      "properties": {
        "name": "Zephath / Tel Ira",
        "description": "another name for Hormah",
        "styleUrl": "#landpoint",
        "icon-scale": 0.75,
        "icon": "https://maps.google.com/mapfiles/kml/paddle/red-circle.png"
      }
    },
    {
      "type": "Feature",
      "geometry": {
        "type": "Point",
        "coordinates": [
          34.63,
          30.88
        ]
      },
      "properties": {
        "name": "Zephath / Shivta",
        "description": "another name for Hormah",
        "styleUrl": "#landpoint",
        "icon-scale": 0.75,
        "icon": "https://maps.google.com/mapfiles/kml/paddle/red-circle.png"
      }
    },
    {
      "type": "Feature",
      "geometry": {
        "type": "Point",
        "coordinates": [
          34.9098,
          31.4558
        ]
      },
      "properties": {
        "name": "Zephath / Tell Beit Mirsim",
        "description": "another name for Hormah",
        "styleUrl": "#landpoint",
        "icon-scale": 0.75,
        "icon": "https://maps.google.com/mapfiles/kml/paddle/red-circle.png"
      }
    }
  ]
}