{
  "type": "FeatureCollection",
  "features": [
    {
      "type": "Feature",
      "geometry": {
        "type": "Point",
        "coordinates": [
          35.019444,
          32.028056
        ]
      },
      "properties": {
        "name": "Arimathea / Rantis",
        "styleUrl": "#landpoint",
        "icon-scale": 0.75,
        "icon": "https://maps.google.com/mapfiles/kml/paddle/red-circle.png"
      }
    },
    {
      "type": "Feature",
      "geometry": {
        "type": "Point",
        "coordinates": [
          35.23161,
          31.85434
        ]
      },
      "properties": {
        "name": "Arimathea / Al Ram",
        "description": "another name for Ramathaim-zophim",
        "styleUrl": "#landpoint",
        "icon-scale": 0.75,
        "icon": "https://maps.google.com/mapfiles/kml/paddle/red-circle.png"
      }
    },
    {
      "type": "Feature",
      "geometry": {
        "type": "Point",
        "coordinates": [
          35.019444,
          32.028056
        ]
      },
      "properties": {
        "name": "Arimathea / Rantis",
        "description": "another name for Ramathaim-zophim",
        "styleUrl": "#landpoint",
        "icon-scale": 0.75,
        "icon": "https://maps.google.com/mapfiles/kml/paddle/red-circle.png"
      }
    },
    {
      "type": "Feature",
      "geometry": {
        "type": "Point",
        "coordinates": [
          35.1025,
          32.03286
        ]
      },
      "properties": {
        "name": "Arimathea / Beit Rima",
        "description": "another name for Ramathaim-zophim",
        "styleUrl": "#landpoint",
        "icon-scale": 0.75,
        "icon": "https://maps.google.com/mapfiles/kml/paddle/red-circle.png"
      }
    },
    {
      "type": "Feature",
      "geometry": {
        "type": "Point",
        "coordinates": [
          35.201667,
          31.896944
        ]
      },
      "properties": {
        "name": "Arimathea / Ramallah",
        "description": "another name for Ramathaim-zophim",
        "styleUrl": "#landpoint",
        "icon-scale": 0.75,
        "icon": "https://maps.google.com/mapfiles/kml/paddle/red-circle.png"
      }
    },
    {
      "type": "Feature",
      "geometry": {
        "type": "Point",
        "coordinates": [
          35.18015,
          31.832733
        ]
      },
      "properties": {
        "name": "Arimathea / Nabi Samwil",
        "description": "another name for Ramathaim-zophim",
        "styleUrl": "#landpoint",
        "icon-scale": 0.75,
        "icon": "https://maps.google.com/mapfiles/kml/paddle/red-circle.png"
      }
    },
    {
      "type": "Feature",
      "geometry": {
        "type": "Point",
        "coordinates": [
          35.216896,
          31.739901
        ]
      },
      "properties": {
        "name": "Arimathea / Ramat Rahel",
        "description": "another name for Ramathaim-zophim",
        "styleUrl": "#landpoint",
        "icon-scale": 0.75,
        "icon": "https://maps.google.com/mapfiles/kml/paddle/red-circle.png"
      }
    },
    {
      "type": "Feature",
      "geometry": {
        "type": "Point",
        "coordinates": [
          35.1025,
          32.03286
        ]
      },
      "properties": {
        "name": "Arimathea / Beit Rima",
        "styleUrl": "#landpoint",
        "icon-scale": 0.75,
        "icon": "https://maps.google.com/mapfiles/kml/paddle/red-circle.png"
      }
    },
    {
      "type": "Feature",
      "geometry": {
        "type": "Point",
        "coordinates": [
          35.23161,
          31.85434
        ]
      },
      "properties": {
        "name": "Arimathea / Al Ram",
        "styleUrl": "#landpoint",
        "icon-scale": 0.75,
        "icon": "https://maps.google.com/mapfiles/kml/paddle/red-circle.png"
      }
    },
    {
      "type": "Feature",
      "geometry": {
        "type": "Point",
        "coordinates": [
          35.214958,
          31.905142
        ]
      },
      "properties": {
        "name": "Arimathea / Al Bira",
        "styleUrl": "#landpoint",
        "icon-scale": 0.75,
        "icon": "https://maps.google.com/mapfiles/kml/paddle/red-circle.png"
      }
    }
  ]
}