{
  "type": "FeatureCollection",
  "features": [
    {
      "type": "Feature",
      "geometry": {
        "type": "Point",
        "coordinates": [
          35.29875,
          32.46079
        ]
      },
      "properties": {
        "name": "Beth-haggan / Tell Jenin",
        "styleUrl": "#landpoint",
        "icon-scale": 0.75,
        "icon": "https://maps.google.com/mapfiles/kml/paddle/red-circle.png"
      }
    },
    {
      "type": "Feature",
      "geometry": {
        "type": "Point",
        "coordinates": [
          35.29875,
          32.46079
        ]
      },
      "properties": {
        "name": "Beth-haggan / Tell Jenin",
        "description": "another name for En-gannim 2",
        "styleUrl": "#landpoint",
        "icon-scale": 0.75,
        "icon": "https://maps.google.com/mapfiles/kml/paddle/red-circle.png"
      }
    },
    {
      "type": "Feature",
      "geometry": {
        "type": "Point",
        "coordinates": [
          35.495439,
          32.713549
        ]
      },
      "properties": {
        "name": "Beth-haggan / Khirbet Beit Jann",
        "description": "another name for En-gannim 2",
        "styleUrl": "#landpoint",
        "icon-scale": 0.75,
        "icon": "https://maps.google.com/mapfiles/kml/paddle/red-circle.png"
      }
    },
    {
      "type": "Feature",
      "geometry": {
        "type": "Point",
        "coordinates": [
          35.499167,
          32.666389
        ]
      },
      "properties": {
        "name": "Beth-haggan / Olam",
        "description": "another name for En-gannim 2",
        "styleUrl": "#landpoint",
        "icon-scale": 0.75,
        "icon": "https://maps.google.com/mapfiles/kml/paddle/red-circle.png"
      }
    },
    {
      "type": "Feature",
      "geometry": {
        "type": "Point",
        "coordinates": [
          35.54671,
          32.67635
        ]
      },
      "properties": {
        "name": "Beth-haggan / Khirbet Anim",
        "description": "another name for En-gannim 2",
        "styleUrl": "#landpoint",
        "icon-scale": 0.75,
        "icon": "https://maps.google.com/mapfiles/kml/paddle/red-circle.png"
      }
    },
    {
      "type": "Feature",
      "geometry": {
        "type": "Point",
        "coordinates": [
          35.537236,
          32.659741
        ]
      },
      "properties": {
        "name": "Beth-haggan / Khirbet ed Dir",
        "description": "another name for En-gannim 2",
        "styleUrl": "#landpoint",
        "icon-scale": 0.75,
        "icon": "https://maps.google.com/mapfiles/kml/paddle/red-circle.png"
      }
    },
    {
      "type": "Feature",
      "geometry": {
        "type": "Point",
        "coordinates": [
          35.4863,
          32.6804
        ]
      },
      "properties": {
        "name": "Beth-haggan / Hadita",
        "description": "another name for En-gannim 2",
        "styleUrl": "#landpoint",
        "icon-scale": 0.75,
        "icon": "https://maps.google.com/mapfiles/kml/paddle/red-circle.png"
      }
    }
  ]
}